{
  "type": "FeatureCollection",
  "features": [
    {
      "type": "Feature",
      "properties": {
        "type": "cafe",
        "name": "Cafe Musė",
        "visited": true
      },
      "geometry": {
        "type": "Point",
        "coordinates": [24.842914938926697, 54.94860836828664]
      }
    },
    {
      "type": "Feature",
      "properties": {
        "type": "kebab",
        "name": "Foman kebabai",
        "visited": false
      },
      "geometry": {
        "type": "Point",
        "coordinates": [24.84331592917442, 54.94829450607914]
      }
    },
    {
      "type": "Feature",
      "properties": {
        "type": "kebab",
        "name": "Azerai",
        "visited": true
      },
      "geometry": {
        "type": "Point",
        "coordinates": [25.277953147888184, 54.7436946656358]
      }
    },
    {
      "type": "Feature",
      "properties": {
        "type": "kebab",
        "name": "Užkandinė Alyva",
        "visited": true
      },
      "geometry": {
        "type": "Point",
        "coordinates": [21.230220794677734, 55.884256798010604]
      }
    },
    {
      "type": "Feature",
      "properties": {
        "type": "restaurant",
        "name": "Snack bar",
        "visited": false
      },
      "geometry": {
        "type": "Point",
        "coordinates": [21.239245086908337, 55.891645516784614]
      }
    },
    {
      "type": "Feature",
      "properties": {
        "type": "restaurant",
        "name": "Venckai Venckuose",
        "visited": false
      },
      "geometry": {
        "type": "Point",
        "coordinates": [21.32161170244217, 55.512567103591]
      }
    },
    {
      "type": "Feature",
      "properties": {
        "type": "restaurant",
        "name": " Chinkali namai",
        "visited": false
      },
      "geometry": {
        "type": "Point",
        "coordinates": [25.21371826529503, 54.67574244781728]
      }
    },
    {
      "type": "Feature",
      "properties": {
        "type": "restaurant",
        "name": "Čeburėkinė",
        "visited": false
      },
      "geometry": {
        "type": "Point",
        "coordinates": [25.043511986732483, 54.64419886114008]
      }
    },
    {
      "type": "Feature",
      "properties": {
        "type": "restaurant",
        "name": "Viduklės koldūnai",
        "visited": false
      },
      "geometry": {
        "type": "Point",
        "coordinates": [22.89639562368393, 55.400017132344644]
      }
    },
    {
      "type": "Feature",
      "properties": {
        "type": "kebab",
        "name": " Saunch ",
        "visited": false
      },
      "geometry": {
        "type": "Point",
        "coordinates": [25.245750546455383, 54.672971739080225]
      }
    },
    {
      "type": "Feature",
      "properties": {
        "type": "restaurant_vegetarian",
        "name": "Rosehip",
        "visited": false
      },
      "geometry": {
        "type": "Point",
        "coordinates": [25.277748629450798, 54.680453691946]
      }
    },
    {
      "type": "Feature",
      "properties": {
        "type": "kebab",
        "name": "Kebab republic",
        "visited": true
      },
      "geometry": {
        "type": "Point",
        "coordinates": [23.98885264992714, 54.91641337214686]
      }
    },
    {
      "type": "Feature",
      "properties": {
        "type": "restaurant",
        "name": " Yakitori Grill Boutique",
        "visited": false
      },
      "geometry": {
        "coordinates": [25.303248304783835, 54.6786309385173],
        "type": "Point"
      }
    },
    {
      "type": "Feature",
      "properties": {
        "type": "cafe",
        "name": "Kavos Reikalai",
        "visited": false
      },
      "geometry": {
        "coordinates": [25.273658171928417, 54.690059067622315],
        "type": "Point"
      }
    },
    {
      "type": "Feature",
      "properties": {
        "type": "cafe",
        "name": "Backstage Roastery Cafe",
        "visited": false
      },
      "geometry": {
        "coordinates": [25.265998284255033, 54.674953747402185],
        "type": "Point"
      }
    },
    {
      "type": "Feature",
      "properties": {
        "type": "cake",
        "name": "Patore sesės",
        "visited": false
      },
      "geometry": {
        "coordinates": [25.277680225305744, 54.67546201207389],
        "type": "Point"
      }
    },
    {
      "type": "Feature",
      "properties": {
        "type": "cake",
        "name": "Jūratės Gulbinienės įmonė",
        "visited": false
      },
      "geometry": {
        "coordinates": [25.23624562145892, 54.728140109166844],
        "type": "Point"
      }
    },
    {
      "type": "Feature",
      "properties": {
        "type": "cake",
        "name": "Babarskienės šakočiai",
        "visited": false,
        "url": "http://www.babarskiene.lt/"
      },
      "geometry": {
        "coordinates": [25.26566822534079, 54.67638509996911],
        "type": "Point"
      }
    },
    {
      "type": "Feature",
      "properties": {
        "type": "ice-cream",
        "name": "Rotonda",
        "visited": false
      },
      "geometry": {
        "coordinates": [25.293031870065903, 54.68601935027698],
        "type": "Point"
      }
    },
    {
      "type": "Feature",
      "properties": {
        "type": "kebab",
        "name": "Paragauk pats",
        "visited": true
      },
      "geometry": {
        "coordinates": [24.669023224133724, 54.784255954745845],
        "type": "Point"
      }
    }
  ]
}
