{
  "type": "FeatureCollection",
  "features": [
    {
      "type": "Feature",
      "properties": {
        "type": "cafe",
        "name": "Cafe Musė",
        "visited": true
      },
      "geometry": {
        "type": "Point",
        "coordinates": [24.842914938926697, 54.94860836828664]
      }
    },
    {
      "type": "Feature",
      "properties": {
        "type": "kebab",
        "name": "Foman kebabai",
        "visited": false
      },
      "geometry": {
        "type": "Point",
        "coordinates": [24.84331592917442, 54.94829450607914]
      }
    },
    {
      "type": "Feature",
      "properties": {
        "type": "kebab",
        "name": "Azerai",
        "visited": true
      },
      "geometry": {
        "type": "Point",
        "coordinates": [25.277953147888184, 54.7436946656358]
      }
    },
    {
      "type": "Feature",
      "properties": {
        "type": "kebab",
        "name": "Užkandinė Alyva",
        "visited": true
      },
      "geometry": {
        "type": "Point",
        "coordinates": [21.230220794677734, 55.884256798010604]
      }
    },
    {
      "type": "Feature",
      "properties": {
        "type": "restaurant",
        "name": "Snack bar",
        "visited": false
      },
      "geometry": {
        "type": "Point",
        "coordinates": [21.239245086908337, 55.891645516784614]
      }
    },
    {
      "type": "Feature",
      "properties": {
        "type": "restaurant",
        "name": "Venckai Venckuose",
        "visited": false
      },
      "geometry": {
        "type": "Point",
        "coordinates": [21.32161170244217, 55.512567103591]
      }
    },
    {
      "type": "Feature",
      "properties": {
        "type": "restaurant",
        "name": " Chinkali namai",
        "visited": false
      },
      "geometry": {
        "type": "Point",
        "coordinates": [25.21371826529503, 54.67574244781728]
      }
    },
    {
      "type": "Feature",
      "properties": {
        "type": "restaurant",
        "name": "Čeburėkinė",
        "visited": false
      },
      "geometry": {
        "type": "Point",
        "coordinates": [25.043511986732483, 54.64419886114008]
      }
    },
    {
      "type": "Feature",
      "properties": {
        "type": "restaurant",
        "name": "Viduklės koldūnai",
        "visited": false
      },
      "geometry": {
        "type": "Point",
        "coordinates": [22.89639562368393, 55.400017132344644]
      }
    },
    {
      "type": "Feature",
      "properties": {
        "type": "kebab",
        "name": " Saunch ",
        "visited": false
      },
      "geometry": {
        "type": "Point",
        "coordinates": [385.2457505464554, 54.67297639198217]
      }
    },
    {
      "type": "Feature",
      "properties": {
        "type": "restaurant_vegetarian",
        "name": "Viduklės koldūnai",
        "visited": false
      },
      "geometry": {
        "type": "Point",
        "coordinates": [385.2777747809887, 54.68044981524174]
      }
    },
    {
      "type": "Feature",
      "properties": {
        "type": "kebab",
        "name": "Kebab republic",
        "visited": true
      },
      "geometry": {
        "type": "Point",
        "coordinates": [383.98876547813416, 54.91641337214686]
      }
    }
  ]
}
